[
  {
    "gen": "mother",
    "surname": "Arnold",
    "name1": "Mavis Lillian",
    "birthYr": 1920,
    "death": 1978,
    "birthPlace": "West Ham",
    "county": "Essex",
    "spouse": "Jack Charles Marks",
    "lat": 51.558,
    "lon": 0.015
  },
  {
    "gen": "grandfather",
    "surname": "Arnold",
    "name1": "Walter",
    "birthYr": 1894,
    "death": 1967,
    "birthPlace": "Wakefield Mews",
    "county": "London",
    "spouse": "Lillian Mary Fulcher",
    "lat": 51.527,
    "lon": -0.124
  },
  {
    "gen": "great-grandfather",
    "surname": "Arnold",
    "name1": "William Henry",
    "birthYr": 1862,
    "death": 1897,
    "birthPlace": "Islington",
    "county": "London",
    "spouse": "Eliza Sooby",
    "lat": 51.547,
    "lon": 0.106
  },
  {
    "gen": "g-g-grandfather",
    "surname": "Arnold",
    "name1": "Edward",
    "birthYr": 1837,
    "death": 1900,
    "birthPlace": "Islington",
    "county": "London",
    "spouse": "Mary Thomas",
    "lat": 51.547,
    "lon": 0.166
  },
  {
    "gen": "g-g-g-grandfather",
    "surname": "Arnold",
    "name1": "John",
    "birthYr": 1803,
    "death": "unknown",
    "birthPlace": "Chilham",
    "county": "Kent",
    "spouse": "Ann Allard",
    "lat": 51.244,
    "lon": 0.966
  },
  {
    "gen": "father",
    "surname": "Marks",
    "name1": "Jack Charles",
    "birthYr": 1915,
    "death": 1998,
    "birthPlace": "Woodford",
    "county": "Essex",
    "spouse": "Mavis Lillian Arnold",
    "lat": 51.592,
    "lon": 0.092
  },
  {
    "gen": "grandfather",
    "surname": "Marks",
    "name1": "William Charles",
    "birthYr": 1878,
    "death": 1956,
    "birthPlace": "Woodford",
    "county": "Essex",
    "spouse": "Jessie Rowlinson",
    "lat": 51.592,
    "lon": 0.042
  },
  {
    "gen": "great-grandfather",
    "surname": "Marks",
    "name1": "Henry Charles",
    "birthYr": 1847,
    "death": 1878,
    "birthPlace": "Haggerston",
    "county": "Middlesex",
    "spouse": "Elizabeth Ann Saveall",
    "lat": 51.522,
    "lon": -0.039
  },
  {
    "gen": "g-g-grandfather",
    "surname": "Marks",
    "name1": "Benjamin",
    "birthYr": 1819,
    "death": 1891,
    "birthPlace": "Frome",
    "county": "Somerset",
    "spouse": "Elizabeth Watts",
    "lat": 51.229,
    "lon": -2.318
  },
  {
    "gen": "g-g-g-grandfather",
    "surname": "Marks",
    "name1": "Edward",
    "birthYr": 1781,
    "death": 1825,
    "birthPlace": "North Petherton",
    "county": "Somerset",
    "spouse": "Rachel [unknown surname]",
    "lat": 51.042,
    "lon": -2.969
  },
  {
    "gen": "g-g-g-g-grandfather",
    "surname": "Marks",
    "name1": "Edward",
    "birthYr": 1742,
    "death": "unknown",
    "birthPlace": "North Petherton",
    "county": "Somerset",
    "spouse": "Joan Parish",
    "lat": 51.042,
    "lon": -3.019
  },
  {
    "gen": "g-g-g-g-g-grandfather",
    "surname": "Marks",
    "name1": "Thomas",
    "birthYr": 1702,
    "death": "unknown",
    "birthPlace": "North Petherton",
    "county": "Somerset",
    "spouse": "Joane Higgins",
    "lat": 51.092,
    "lon": -2.969
  },
  {
    "gen": "g-g-g-g-g-g-grandfather",
    "surname": "Marks",
    "name1": "Edward",
    "birthYr": 1673,
    "death": "unknown",
    "birthPlace": "North Petherton",
    "county": "Somerset",
    "spouse": "Jane Brain",
    "lat": 51.092,
    "lon": -3.019
  },
  {
    "gen": "g-g-g-g-g-g-g-grandfather",
    "surname": "Markes",
    "name1": "John",
    "birthYr": 1647,
    "death": "unknown",
    "birthPlace": "North Petherton",
    "county": "Somerset",
    "spouse": "Lucretia Mitchell",
    "lat": 51.092,
    "lon": -3.069
  },
  {
    "gen": "grandmother",
    "surname": "Fulcher",
    "name1": "Lillian Mary",
    "birthYr": 1900,
    "death": 1980,
    "birthPlace": "Southend",
    "county": "Essex",
    "spouse": "Walter Arnold",
    "lat": 51.546,
    "lon": 0.708
  },
  {
    "gen": "great-grandfather",
    "surname": "Fulcher",
    "name1": "Frank",
    "birthYr": 1874,
    "death": 1966,
    "birthPlace": "Herne Hill",
    "county": "London",
    "spouse": "Ada Louisa Walker",
    "lat": 51.455,
    "lon": 0.097
  },
  {
    "gen": "g-g-grandfather",
    "surname": "Fulcher",
    "name1": "Henry",
    "birthYr": 1835,
    "death": 1893,
    "birthPlace": "Newbourn",
    "county": "Suffolk",
    "spouse": "Charlotte Childs",
    "lat": 52.04,
    "lon": 1.314
  },
  {
    "gen": "g-g-g-grandfather",
    "surname": "Fulcher",
    "name1": "James",
    "birthYr": 1797,
    "death": 1855,
    "birthPlace": "Newbourn",
    "county": "Suffolk",
    "spouse": "Mary Little",
    "lat": 52.04,
    "lon": 1.264
  },
  {
    "gen": "grandmother",
    "surname": "Rowlinson",
    "name1": "Jessie",
    "birthYr": 1881,
    "death": 1955,
    "birthPlace": "Great Wratting",
    "county": "Suffolk",
    "spouse": "William Charles Marks",
    "lat": 52.059,
    "lon": 0.461
  },
  {
    "gen": "great-grandfather",
    "surname": "Rowlinson",
    "name1": "William",
    "birthYr": 1857,
    "death": 1926,
    "birthPlace": "Great Wratting",
    "county": "Suffolk",
    "spouse": "Ellen Cornell",
    "lat": 52.059,
    "lon": 0.411
  },
  {
    "gen": "g-g-grandfather",
    "surname": "Rowlingson",
    "name1": "Richard",
    "birthYr": 1829,
    "death": 1900,
    "birthPlace": "Great Wratting",
    "county": "Suffolk",
    "spouse": "Elizabeth Cornwell",
    "lat": 52.109,
    "lon": 0.461
  },
  {
    "gen": "g-g-g-grandfather",
    "surname": "Rollingson",
    "name1": "Richard",
    "birthYr": 1791,
    "death": 1858,
    "birthPlace": "Great Wratting",
    "county": "Suffolk",
    "spouse": "Martha Browne",
    "lat": 52.109,
    "lon": 0.411
  },
  {
    "gen": "g-g-g-g-grandfather",
    "surname": "Rollinson",
    "name1": "Richard",
    "birthYr": 1761,
    "death": "unknown",
    "birthPlace": "Great Wratting",
    "county": "Suffolk",
    "spouse": "Hannah Smith",
    "lat": 52.109,
    "lon": 0.361
  },
  {
    "gen": "great-grandmother",
    "surname": "Saveall",
    "name1": "Elizabeth Ann",
    "birthYr": 1846,
    "death": 1922,
    "birthPlace": "Wanstead",
    "county": "Essex",
    "spouse": "Henry Charles Marks",
    "lat": 51.567,
    "lon": 0.033
  },
  {
    "gen": "g-g-grandfather",
    "surname": "Saveall",
    "name1": "William",
    "birthYr": 1821,
    "death": 1888,
    "birthPlace": "Woodford Bridge",
    "county": "Essex",
    "spouse": "Sarah [unknown surname]",
    "lat": 51.606,
    "lon": 0.056
  },
  {
    "gen": "great-grandmother",
    "surname": "Cornell",
    "name1": "Ellen",
    "birthYr": 1857,
    "death": "unknown",
    "birthPlace": "Great Wratting",
    "county": "Suffolk",
    "spouse": "William Rowlinson",
    "lat": 52.059,
    "lon": 0.361
  },
  {
    "gen": "g-g-grandfather",
    "surname": "Cornell",
    "name1": "Samuel",
    "birthYr": 1826,
    "death": 1904,
    "birthPlace": "Barnardiston",
    "county": "Suffolk",
    "spouse": "Elizabeth Coe",
    "lat": 52.112,
    "lon": 0.499
  },
  {
    "gen": "g-g-g-grandfather",
    "surname": "Cornell",
    "name1": "Samuel",
    "birthYr": 1800,
    "death": 1870,
    "birthPlace": "Barnardiston",
    "county": "Suffolk",
    "spouse": "Ann Hammond",
    "lat": 52.112,
    "lon": 0.459
  },
  {
    "gen": "g-g-g-g-grandfather",
    "surname": "Cornell",
    "name1": "Daniel",
    "birthYr": 1771,
    "death": 1843,
    "birthPlace": "Haverhill",
    "county": "Suffolk",
    "spouse": "Mary Mansfield",
    "lat": 52.081,
    "lon": 0.445
  },
  {
    "gen": "g-g-g-g-g-grandfather",
    "surname": "Cornell",
    "name1": "Samuel",
    "birthYr": 1740,
    "death": 1788,
    "birthPlace": "Little Wratting",
    "county": "Suffolk",
    "spouse": "Mary Filney",
    "lat": 52.098,
    "lon": 0.46
  },
  {
    "gen": "g-g-g-g-g-g-grandfather",
    "surname": "Cornell",
    "name1": "John",
    "birthYr": 1703,
    "death": 1761,
    "birthPlace": "Withersfield",
    "county": "Suffolk",
    "spouse": "Ann Gowers",
    "lat": 52.1,
    "lon": 0.403
  },
  {
    "gen": "great-grandmother",
    "surname": "Sooby",
    "name1": "Eliza",
    "birthYr": 1867,
    "death": 1898,
    "birthPlace": "St. Pancras",
    "county": "London",
    "spouse": "William Henry Arnold",
    "lat": 51.531,
    "lon": 0.126
  },
  {
    "gen": "g-g-grandfather",
    "surname": "Sooby",
    "name1": "John",
    "birthYr": 1821,
    "death": 1908,
    "birthPlace": "St. Pancras",
    "county": "London",
    "spouse": "Caroline Elizabeth Newton",
    "lat": 51.531,
    "lon": 0.076
  },
  {
    "gen": "great-grandmother",
    "surname": "Walker",
    "name1": "Ada Louisa",
    "birthYr": 1873,
    "death": 1935,
    "birthPlace": "Old Ford",
    "county": "Middlesex",
    "spouse": "Frank Fulcher",
    "lat": 51.534,
    "lon": -0.026
  },
  {
    "gen": "g-g-grandfather",
    "surname": "Walker",
    "name1": "Joseph Ebenezer",
    "birthYr": 1828,
    "death": 1919,
    "birthPlace": "Bethnal Green",
    "county": "London",
    "spouse": "Mary Daycock",
    "lat": 51.527,
    "lon": 0.067
  },
  {
    "gen": "g-g-g-grandfather",
    "surname": "Walker",
    "name1": "John",
    "birthYr": 1802,
    "death": 1867,
    "birthPlace": "Bethnal Green",
    "county": "London",
    "spouse": "Eliza Taylor",
    "lat": 51.527,
    "lon": 0.017
  }
]
